{"name":"Beer Graph","nodes":577,"dir_e":889,"und_e":0,"data":{"208172":{"l":"City","e":[{"t":244955,"d":true}],"f":{"country":"Germany","city":"Andechs","state":"Bayern"}},"208173":{"l":"City","e":[{"t":244978,"d":true}],"f":{"country":"United States","city":"Appleton","state":"Wisconsin"}},"208174":{"l":"City","e":[{"t":244956,"d":true}],"f":{"country":"United States","city":"Auburn","state":"California"}},"208175":{"l":"City","e":[{"t":244959,"d":true}],"f":{"country":"United States","city":"Aurora","state":"Illinois"}},"208176":{"l":"City","e":[{"t":244974,"d":true}],"f":{"country":"United States","city":"Austin","state":"Texas"}},"208177":{"l":"City","e":[{"t":244967,"d":true}],"f":{"country":"United States","city":"Battle Creek","state":"Michigan"}},"208178":{"l":"City","e":[{"t":244975,"d":true}],"f":{"country":"Belgium","city":"Beersel","state":"Vlaams Brabant"}},"241304":{"l":"City","e":[{"t":244956,"d":true}],"f":{"country":"United States","city":"Boonville","state":"California"}},"241305":{"l":"City","e":[{"t":244969,"d":true}],"f":{"country":"Belgium","city":"Dene","state":"Namur"}},"241306":{"l":"City","e":[{"t":244969,"d":true}],"f":{"country":"Belgium","city":"Dinant","state":"Namur"}},"241307":{"l":"City","e":[],"f":{"country":"Norway","city":"Drammen","state":""}},"241308":{"l":"City","e":[],"f":{"country":"Ireland","city":"Dublin","state":""}},"241309":{"l":"City","e":[{"t":244972,"d":true}],"f":{"country":"United States","city":"Harrisburg","state":"Pennsylvania"}},"241310":{"l":"City","e":[{"t":244958,"d":true}],"f":{"country":"United States","city":"Honolulu","state":"Hawaii"}},"241311":{"l":"City","e":[{"t":244977,"d":true}],"f":{"country":"Belgium","city":"Ingelmunster","state":"West-Vlaanderen"}},"241312":{"l":"City","e":[{"t":244953,"d":true}],"f":{"country":"United States","city":"Juneau","state":"Alaska"}},"241313":{"l":"City","e":[{"t":244968,"d":true}],"f":{"country":"United States","city":"Kansas City","state":"Missouri"}},"241314":{"l":"City","e":[{"t":244955,"d":true}],"f":{"country":"Germany","city":"Kaufbeuren","state":"Bayern"}},"241315":{"l":"City","e":[{"t":244955,"d":true}],"f":{"country":"Germany","city":"Kempten","state":"Bayern"}},"241316":{"l":"City","e":[{"t":244962,"d":true}],"f":{"country":"United States","city":"Lexington","state":"Kentucky"}},"241317":{"l":"City","e":[{"t":244964,"d":true}],"f":{"country":"United States","city":"Lincolnville","state":"Maine"}},"241318":{"l":"City","e":[{"t":244978,"d":true}],"f":{"country":"United States","city":"Madison","state":"Wisconsin"}},"241319":{"l":"City","e":[{"t":244955,"d":true}],"f":{"country":"Germany","city":"Marktoberdorf","state":"Bayern"}},"241320":{"l":"City","e":[{"t":244954,"d":true}],"f":{"country":"Germany","city":"Moos","state":"Baden-Wurttemberg"}},"241321":{"l":"City","e":[{"t":244970,"d":true}],"f":{"country":"United States","city":"Omaha","state":"Nebraska"}},"241322":{"l":"City","e":[],"f":{"country":"Belgium","city":"Opwijk","state":""}},"243091":{"l":"Style","e":[],"f":{"style":"Wood- and Barrel-Aged Dark Beer"}},"243092":{"l":"Style","e":[],"f":{"style":"Wood- and Barrel-Aged Strong Beer"}},"243093":{"l":"Style","e":[],"f":{"style":"Wood- and Barrel-Aged Sour Beer"}},"243094":{"l":"Style","e":[],"f":{"style":"Aged Beer"}},"243095":{"l":"Style","e":[],"f":{"style":"Other Strong Ale or Lager"}},"243096":{"l":"Style","e":[],"f":{"style":"Non-Alcoholic Beer"}},"243097":{"l":"Style","e":[],"f":{"style":"Winter Warmer"}},"244868":{"l":"Brewery","e":[{"t":244940,"d":true}],"f":{"country":"United States","website":"http://www.valleyinnonline.com/","code":"17702","city":"Williamsport","phone":"570.326.3383","address1":"204 Valley Street","latitude":"41.2225","name":"Abbey Wright Brewing/Valley Inn","state":"Pennsylvania","longitude":"-77.0369"}},"244869":{"l":"Brewery","e":[{"t":244939,"d":true}],"f":{"country":"United States","website":"","code":"","city":"Valparaiso","phone":"(219) 548-3300","address1":"210 Aberdeen Dr.","latitude":"41.4392","name":"Aberdeen Brewing","state":"Indiana","longitude":"-87.1078"}},"244870":{"l":"Brewery","e":[{"t":244921,"d":true}],"f":{"country":"United States","website":"http://www.abita.com/","code":"70420","phone":"800-737-2311","city":"Abita Springs","address1":"PO Box 1510","latitude":"30.5049","name":"Abita Brewing Company","state":"Louisiana","longitude":"-89.944"}},"244871":{"l":"Brewery","e":[{"t":244937,"d":true}],"f":{"country":"United Kingdom","website":"http://www.adnams.co.uk","code":"","phone":"44-(01502)-727200","city":"Southwold","address1":"IP18 6JW","latitude":"52.3277","name":"Adnams & Co.","state":"Suffolk","longitude":"1.6802"}},"244872":{"l":"Brewery","e":[{"t":241322,"d":true}],"f":{"country":"Belgium","website":"http://www.affligembeer.be/","code":"","phone":"052/35 83 57","city":"Opwijk","address1":"","latitude":"50.9699","name":"Affligem Brouwerij","state":"","longitude":"4.1892"}},"244873":{"l":"Brewery","e":[{"t":244941,"d":true}],"f":{"country":"Canada","website":"","code":"0","city":"Winnipeg","phone":"1-204-233-4677","address1":"PO Box 42008","latitude":"49.7652","name":"Agassiz Brewing","state":"Manitoba","longitude":"-97.1539"}},"244874":{"l":"Brewery","e":[{"t":241321,"d":true}],"f":{"country":"United States","website":"","code":"68130","city":"Omaha","phone":"","address1":"11337 Davenport St.","latitude":"41.2603","name":"Aksarben Brewing (BOP)","state":"Nebraska","longitude":"-96.0903"}},"244875":{"l":"Brewery","e":[{"t":241314,"d":true}],"f":{"country":"Germany","website":"http://www.aktien-brauerei.de/","code":"","phone":"49-(0)8341-/-430430","city":"Kaufbeuren","address1":"Hohe Buchleuthe 3","latitude":"47.8781","name":"Aktienbrauerei Kaufbeuren","state":"Bayern","longitude":"10.6161"}},"244876":{"l":"Brewery","e":[{"t":244930,"d":true}],"f":{"country":"United States","website":"","code":"97213","city":"Portland","phone":"1-503-460-9025","address1":"4765 NE Fremont","latitude":"45.5484","name":"Alameda Brewhouse","state":"Oregon","longitude":"-122.619"}},"244877":{"l":"Brewery","e":[{"t":241312,"d":true}],"f":{"country":"United States","website":"http://www.alaskanbeer.com/","code":"99801","phone":"1-907-780-5866","city":"Juneau","address1":"5429 Shaune Drive","latitude":"58.3573","name":"Alaskan Brewing","state":"Alaska","longitude":"-134.49"}},"244878":{"l":"Brewery","e":[{"t":244928,"d":true}],"f":{"country":"Lithuania","website":"","code":"","city":"Panevys","phone":"370-45-505223","address1":"Taikos aleja 1","latitude":"","name":"Alaus Darykla Kalnapilis","state":"","longitude":""}},"244879":{"l":"Brewery","e":[{"t":244931,"d":true}],"f":{"country":"Latvia","website":"","code":"","phone":"371-70-23-200","city":"Rga","address1":"Tvaika iela 44","latitude":"","name":"Aldaris","state":"","longitude":""}},"244880":{"l":"Brewery","e":[{"t":241318,"d":true}],"f":{"country":"United States","website":"http://www.aleasylum.com/","code":"53704","city":"Madison","phone":"6086633926","address1":"3698 Kinsman Blvd","latitude":"43.1257","name":"Ale Asylum","state":"Wisconsin","longitude":"-89.3253"}},"244881":{"l":"Brewery","e":[{"t":244935,"d":true}],"f":{"country":"United States","website":"http://alesmith.com/","code":"92126","phone":"1-858-549-9888","city":"San Diego","address1":"9368 Cabot Drive","latitude":"32.892","name":"AleSmith Brewing","state":"California","longitude":"-117.144"}},"244882":{"l":"Brewery","e":[{"t":241310,"d":true}],"f":{"country":"United States","website":"","code":"","city":"Honolulu","phone":"","address1":"","latitude":"21.3069","name":"Ali`i Brewing","state":"Hawaii","longitude":"-157.858"}},"244883":{"l":"Brewery","e":[{"t":244929,"d":true}],"f":{"country":"United States","website":"http://www.allagash.com/","code":"4103","phone":"1-800-330-5385","city":"Portland","address1":"100 Industrial Way","latitude":"43.7028","name":"Allagash Brewing","state":"Maine","longitude":"-70.3166"}},"244884":{"l":"Brewery","e":[{"t":244922,"d":true}],"f":{"country":"United States","website":"http://www.thebrewworks.com/allentown-brewworks/","code":"18101","city":"Allentown","phone":"610.433.7777","address1":"814 W Hamilton St","latitude":"40.6016","name":"Allentown Brew Works","state":"Pennsylvania","longitude":"-75.474"}},"244885":{"l":"Brewery","e":[{"t":241315,"d":true}],"f":{"country":"Germany","website":"","code":"","phone":"49-(0)831-/-2050-0","city":"Kempten","address1":"Beethovenstrae 7","latitude":"47.7487","name":"Allguer Brauhaus AG Kempten","state":"Bayern","longitude":"10.5694"}},"244886":{"l":"Brewery","e":[{"t":241319,"d":true}],"f":{"country":"Germany","website":"","code":"","phone":"49-(0)8342-/-9647-0","city":"Marktoberdorf","address1":"Schwendener Strae 18","latitude":"47.7237","name":"Allguer Brauhaus AG Kempten, Brausttte Leuterschach","state":"Bayern","longitude":"10.3141"}},"244887":{"l":"Brewery","e":[{"t":241316,"d":true}],"f":{"country":"United States","website":"http://www.kentuckyale.com/kentuckyale/Index.html","code":"40508","city":"Lexington","phone":"1-859-887-3406","address1":"401 Cross Street","latitude":"38.0501","name":"Alltech's Lexington Brewing Company","state":"Kentucky","longitude":"-84.5088"}},"244888":{"l":"Brewery","e":[{"t":244923,"d":true}],"f":{"country":"United States","website":"http://www.alpinebeerco.com/","code":"91901","phone":"1-619-445-2337","city":"Alpine","address1":"2351 Alpine Boulevard","latitude":"32.8355","name":"Alpine Beer Company","state":"California","longitude":"-116.765"}},"244889":{"l":"Brewery","e":[{"t":244924,"d":true}],"f":{"country":"Germany","website":"","code":"","phone":"49-(0)7444-/-67-0","city":"Alpirsbach","address1":"Marktplatz 1","latitude":"48.3457","name":"Alpirsbacher Klosterbru","state":"Baden-Wrttemberg","longitude":"8.4031"}},"244890":{"l":"Brewery","e":[{"t":241311,"d":true}],"f":{"country":"Belgium","website":"","code":"","city":"Ingelmunster","phone":"32-051-/-30-55-17","address1":"Oostrozebekestraat 114","latitude":"50.919","name":"Alvinne Picobrouwerij","state":"West-Vlaanderen","longitude":"3.2632"}},"244891":{"l":"Brewery","e":[{"t":208175,"d":true}],"f":{"country":"United States","website":"","code":"60505","city":"Aurora","phone":"1-630-264-2739","address1":"205 North Broadway","latitude":"41.7605","name":"America's Brewing","state":"Illinois","longitude":"-88.309"}},"244892":{"l":"Brewery","e":[{"t":208174,"d":true}],"f":{"country":"United States","website":"","code":"","city":"Auburn","phone":"","address1":"","latitude":"38.8966","name":"American River Brewing","state":"California","longitude":"-121.077"}},"244893":{"l":"Brewery","e":[{"t":241313,"d":true}],"f":{"country":"United States","website":"","code":"64161","city":"Kansas City","phone":"1-816-414-7000","address1":"8201 NE Birmingham Road","latitude":"39.1551","name":"Amerisports Brew Pub","state":"Missouri","longitude":"-94.482"}},"244894":{"l":"Brewery","e":[{"t":244925,"d":true}],"f":{"country":"United States","website":"http://www.amherstbrewing.com/","code":"1002","phone":"413-253-4400","city":"Amherst","address1":"24 North Pleasant Street","latitude":"42.3763","name":"Amherst Brewing Company","state":"Massachusetts","longitude":"-72.5199"}},"244895":{"l":"Brewery","e":[{"t":244934,"d":true}],"f":{"country":"United States","website":"","code":"81201","city":"Salida","phone":"1-719-539-5219","address1":"136 East Second Street","latitude":"38.535","name":"Amicas Pizza, Microbrews and More","state":"Colorado","longitude":"-105.992"}},"244896":{"l":"Brewery","e":[{"t":244926,"d":true}],"f":{"country":"Netherlands","website":"http://www.amstel.com","code":"","phone":"800-022-9885","city":"Amsterdam","address1":"Antwoordnummer 7181","latitude":"52.3738","name":"Amstel Brouwerij","state":"","longitude":"4.8909"}},"244897":{"l":"Brewery","e":[{"t":244927,"d":true}],"f":{"country":"United States","website":"http://www.anacortesrockfish.com/","code":"98221","phone":"360-588-1720","city":"Anacortes","address1":"320 Commercial Avenue","latitude":"48.5193","name":"Anacortes Brewing","state":"Washington","longitude":"-122.613"}},"244898":{"l":"Brewery","e":[{"t":244936,"d":true}],"f":{"country":"United States","website":"","code":"94107","phone":"1-415-863-8350","city":"San Francisco","address1":"1705 Mariposa Street","latitude":"37.7635","name":"Anchor Brewing","state":"California","longitude":"-122.401"}},"244899":{"l":"Brewery","e":[{"t":208172,"d":true}],"f":{"country":"Germany","website":"","code":"","phone":"49-(0)8152-/-376-0","city":"Andechs","address1":"Bergstrae 2","latitude":"47.9775","name":"Andechser Klosterbrauerei","state":"Bayern","longitude":"11.185"}},"244900":{"l":"Brewery","e":[{"t":241304,"d":true}],"f":{"country":"United States","website":"http://avbc.com/","code":"95415","city":"Boonville","phone":"1-800-207-2337","address1":"17700 Boonville Rd","latitude":"39.0014","name":"Anderson Valley Brewing","state":"California","longitude":"-123.356"}},"244901":{"l":"Brewery","e":[{"t":241317,"d":true}],"f":{"country":"United States","website":"","code":"4849","city":"Lincolnville","phone":"(207) 763-3305","address1":"","latitude":"44.3516","name":"Andrew's Brewing","state":"Maine","longitude":"-69.1401"}},"244902":{"l":"Brewery","e":[{"t":241318,"d":true}],"f":{"country":"United States","website":"","code":"53703","city":"Madison","phone":"1-608-257-2707","address1":"","latitude":"43.0785","name":"Angelic Brewing","state":"Wisconsin","longitude":"-89.382"}},"244903":{"l":"Brewery","e":[{"t":244933,"d":true}],"f":{"country":"United States","website":"http://www.anheuser-busch.com/","code":"63118","city":"Saint Louis","phone":"1-800-342-5283","address1":"One Busch Place","latitude":"38.5983","name":"Anheuser-Busch","state":"Missouri","longitude":"-90.209"}},"244904":{"l":"Brewery","e":[{"t":241309,"d":true}],"f":{"country":"United States","website":"http://www.abcbrew.com","code":"17110","city":"Harrisburg","phone":"717.221.1080","address1":"50 N. Cameron St.","latitude":"40.2659","name":"Appalachian Brewing Company","state":"Pennsylvania","longitude":"-76.8753"}},"244905":{"l":"Brewery","e":[{"t":208173,"d":true}],"f":{"country":"United States","website":"","code":"","city":"Appleton","phone":"","address1":"","latitude":"44.2619","name":"Appleton Brewing","state":"Wisconsin","longitude":"-88.4154"}},"244906":{"l":"Brewery","e":[{"t":208177,"d":true}],"f":{"country":"United States","website":"http://www.arcadiaales.com/","code":"49017","phone":"1-269-963-9690","city":"Battle Creek","address1":"103 West Michigan Avenue","latitude":"42.322","name":"Arcadia Brewing","state":"Michigan","longitude":"-85.1851"}},"244907":{"l":"Brewery","e":[{"t":241320,"d":true}],"f":{"country":"Germany","website":"http://www.arcobraeu.de","code":"94554","phone":"09938 / 918 180","city":"Moos","address1":"Schlossalle 1","latitude":"","name":"Arcobrau Grafliches Brauhaus","state":"Baden-Wurttemberg","longitude":""}},"244908":{"l":"Brewery","e":[{"t":241308,"d":true}],"f":{"country":"Ireland","website":"http://www.guinness.com","code":"","city":"Dublin","phone":"","address1":"St. James's Gate","latitude":"53.3433","name":"Arthur Guinness & Son","state":"","longitude":"-6.2846"}},"244909":{"l":"Brewery","e":[{"t":244938,"d":true}],"f":{"country":"Japan","website":"","code":"","phone":"81-(03)-5608-5129","city":"Tokyo","address1":"23-1 Azumabashi 1-chome","latitude":"","name":"Asahi Breweries","state":"Kanto","longitude":""}},"244910":{"l":"Category","e":[],"f":{"category":"British Ale"}},"244911":{"l":"Category","e":[],"f":{"category":"Irish Ale"}},"244912":{"l":"Category","e":[],"f":{"category":"North American Ale"}},"244913":{"l":"Category","e":[],"f":{"category":"German Ale"}},"244914":{"l":"Category","e":[],"f":{"category":"Belgian and French Ale"}},"244915":{"l":"Category","e":[],"f":{"category":"International Ale"}},"244916":{"l":"Category","e":[],"f":{"category":"German Lager"}},"244917":{"l":"Category","e":[],"f":{"category":"North American Lager"}},"244918":{"l":"Category","e":[],"f":{"category":"Other Lager"}},"244919":{"l":"Category","e":[],"f":{"category":"International Lager"}},"244920":{"l":"Category","e":[],"f":{"category":"Other Style"}},"244921":{"l":"City","e":[{"t":244963,"d":true}],"f":{"country":"United States","city":"Abita Springs","state":"Louisiana"}},"244922":{"l":"City","e":[{"t":244972,"d":true}],"f":{"country":"United States","city":"Allentown","state":"Pennsylvania"}},"244923":{"l":"City","e":[{"t":244956,"d":true}],"f":{"country":"United States","city":"Alpine","state":"California"}},"244924":{"l":"City","e":[{"t":244954,"d":true}],"f":{"country":"Germany","city":"Alpirsbach","state":"Baden-Wrttemberg"}},"244925":{"l":"City","e":[{"t":244966,"d":true}],"f":{"country":"United States","city":"Amherst","state":"Massachusetts"}},"244926":{"l":"City","e":[],"f":{"country":"Netherlands","city":"Amsterdam","state":""}},"244927":{"l":"City","e":[{"t":244976,"d":true}],"f":{"country":"United States","city":"Anacortes","state":"Washington"}},"244928":{"l":"City","e":[],"f":{"country":"Lithuania","city":"Panevys","state":""}},"244929":{"l":"City","e":[{"t":244964,"d":true}],"f":{"country":"United States","city":"Portland","state":"Oregon"}},"244930":{"l":"City","e":[{"t":244971,"d":true}],"f":{"country":"United States","city":"Portland","state":"Maine"}},"244931":{"l":"City","e":[],"f":{"country":"Latvia","city":"Rga","state":""}},"244932":{"l":"City","e":[{"t":244969,"d":true}],"f":{"country":"Belgium","city":"Rochefort","state":"Namur"}},"244933":{"l":"City","e":[{"t":244968,"d":true}],"f":{"country":"United States","city":"Saint Louis","state":"Missouri"}},"244934":{"l":"City","e":[{"t":244957,"d":true}],"f":{"country":"United States","city":"Salida","state":"Colorado"}},"244935":{"l":"City","e":[{"t":244956,"d":true}],"f":{"country":"United States","city":"San Diego","state":"California"}},"244936":{"l":"City","e":[{"t":244956,"d":true}],"f":{"country":"United States","city":"San Francisco","state":"California"}},"244937":{"l":"City","e":[{"t":244973,"d":true}],"f":{"country":"United Kingdom","city":"Southwold","state":"Suffolk"}},"244938":{"l":"City","e":[{"t":244961,"d":true}],"f":{"country":"Japan","city":"Tokyo","state":"Kanto"}},"244939":{"l":"City","e":[{"t":244960,"d":true}],"f":{"country":"United States","city":"Valparaiso","state":"Indiana"}},"244940":{"l":"City","e":[{"t":244972,"d":true}],"f":{"country":"United States","city":"Williamsport","state":"Pennsylvania"}},"244941":{"l":"City","e":[{"t":244965,"d":true}],"f":{"country":"Canada","city":"Winnipeg","state":"Manitoba"}},"244942":{"l":"Country","e":[],"f":{"country":"Belgium"}},"244943":{"l":"Country","e":[],"f":{"country":"Canada"}},"244944":{"l":"Country","e":[],"f":{"country":"Germany"}},"244945":{"l":"Country","e":[],"f":{"country":"Ireland"}},"244946":{"l":"Country","e":[],"f":{"country":"Japan"}},"244947":{"l":"Country","e":[],"f":{"country":"Latvia"}},"244948":{"l":"Country","e":[],"f":{"country":"Lithuania"}},"244949":{"l":"Country","e":[],"f":{"country":"Netherlands"}},"244950":{"l":"Country","e":[],"f":{"country":"Norway"}},"244951":{"l":"Country","e":[],"f":{"country":"United Kingdom"}},"244952":{"l":"Country","e":[],"f":{"country":"United States"}},"244953":{"l":"State","e":[{"t":244952,"d":true}],"f":{"state":"Alaska"}},"244954":{"l":"State","e":[{"t":244944,"d":true}],"f":{"state":"Baden-Wrttemberg"}},"244955":{"l":"State","e":[{"t":244944,"d":true}],"f":{"state":"Bayern"}},"244956":{"l":"State","e":[{"t":244952,"d":true}],"f":{"state":"California"}},"244957":{"l":"State","e":[{"t":244952,"d":true}],"f":{"state":"Colorado"}},"244958":{"l":"State","e":[{"t":244952,"d":true}],"f":{"state":"Hawaii"}},"244959":{"l":"State","e":[{"t":244952,"d":true}],"f":{"state":"Illinois"}},"244960":{"l":"State","e":[{"t":244952,"d":true}],"f":{"state":"Indiana"}},"244961":{"l":"State","e":[{"t":244946,"d":true}],"f":{"state":"Kanto"}},"244962":{"l":"State","e":[{"t":244952,"d":true}],"f":{"state":"Kentucky"}},"244963":{"l":"State","e":[{"t":244952,"d":true}],"f":{"state":"Louisiana"}},"244964":{"l":"State","e":[{"t":244952,"d":true}],"f":{"state":"Maine"}},"244965":{"l":"State","e":[{"t":244943,"d":true}],"f":{"state":"Manitoba"}},"244966":{"l":"State","e":[{"t":244952,"d":true}],"f":{"state":"Massachusetts"}},"244967":{"l":"State","e":[{"t":244952,"d":true}],"f":{"state":"Michigan"}},"244968":{"l":"State","e":[{"t":244952,"d":true}],"f":{"state":"Missouri"}},"244969":{"l":"State","e":[{"t":244942,"d":true}],"f":{"state":"Namur"}},"244970":{"l":"State","e":[{"t":244952,"d":true}],"f":{"state":"Nebraska"}},"244971":{"l":"State","e":[{"t":244952,"d":true}],"f":{"state":"Oregon"}},"244972":{"l":"State","e":[{"t":244952,"d":true}],"f":{"state":"Pennsylvania"}},"244973":{"l":"State","e":[{"t":244951,"d":true}],"f":{"state":"Suffolk"}},"244974":{"l":"State","e":[{"t":244952,"d":true}],"f":{"state":"Texas"}},"244975":{"l":"State","e":[{"t":244942,"d":true}],"f":{"state":"Vlaams Brabant"}},"244976":{"l":"State","e":[{"t":244952,"d":true}],"f":{"state":"Washington"}},"244977":{"l":"State","e":[{"t":244942,"d":true}],"f":{"state":"West-Vlaanderen"}},"244978":{"l":"State","e":[{"t":244952,"d":true}],"f":{"state":"Wisconsin"}},"244979":{"l":"Style","e":[],"f":{"style":"Classic English-Style Pale Ale"}},"244980":{"l":"Style","e":[],"f":{"style":"English-Style India Pale Ale"}},"244981":{"l":"Style","e":[],"f":{"style":"Ordinary Bitter"}},"244982":{"l":"Style","e":[],"f":{"style":"Special Bitter or Best Bitter"}},"244983":{"l":"Style","e":[],"f":{"style":"Extra Special Bitter"}},"244984":{"l":"Style","e":[],"f":{"style":"English-Style Summer Ale"}},"244985":{"l":"Style","e":[],"f":{"style":"Scottish-Style Light Ale"}},"244986":{"l":"Style","e":[],"f":{"style":"Scottish-Style Heavy Ale"}},"244987":{"l":"Style","e":[],"f":{"style":"Scottish-Style Export Ale"}},"244988":{"l":"Style","e":[],"f":{"style":"English-Style Pale Mild Ale"}},"244989":{"l":"Style","e":[],"f":{"style":"English-Style Dark Mild Ale"}},"244990":{"l":"Style","e":[],"f":{"style":"English-Style Brown Ale"}},"244991":{"l":"Style","e":[],"f":{"style":"Old Ale"}},"244992":{"l":"Style","e":[],"f":{"style":"Strong Ale"}},"244993":{"l":"Style","e":[],"f":{"style":"Scotch Ale"}},"244994":{"l":"Style","e":[],"f":{"style":"British-Style Imperial Stout"}},"244995":{"l":"Style","e":[],"f":{"style":"British-Style Barley Wine Ale"}},"244996":{"l":"Style","e":[],"f":{"style":"Robust Porter"}},"244997":{"l":"Style","e":[],"f":{"style":"Brown Porter"}},"244998":{"l":"Style","e":[],"f":{"style":"Sweet Stout"}},"244999":{"l":"Style","e":[],"f":{"style":"Oatmeal Stout"}},"245000":{"l":"Style","e":[],"f":{"style":"Irish-Style Red Ale"}},"245001":{"l":"Style","e":[],"f":{"style":"Classic Irish-Style Dry Stout"}},"245002":{"l":"Style","e":[],"f":{"style":"Foreign (Export)-Style Stout"}},"245003":{"l":"Style","e":[],"f":{"style":"Porter"}},"245004":{"l":"Style","e":[],"f":{"style":"American-Style Pale Ale"}},"245005":{"l":"Style","e":[],"f":{"style":"Fresh Hop Ale"}},"245006":{"l":"Style","e":[],"f":{"style":"Pale American-Belgo-Style Ale"}},"245007":{"l":"Style","e":[],"f":{"style":"Dark American-Belgo-Style Ale"}},"245008":{"l":"Style","e":[],"f":{"style":"American-Style Strong Pale Ale"}},"245009":{"l":"Style","e":[],"f":{"style":"American-Style India Pale Ale"}},"245010":{"l":"Style","e":[],"f":{"style":"Imperial or Double India Pale Ale"}},"245011":{"l":"Style","e":[],"f":{"style":"American-Style Amber/Red Ale"}},"245012":{"l":"Style","e":[],"f":{"style":"Imperial or Double Red Ale"}},"245013":{"l":"Style","e":[],"f":{"style":"American-Style Barley Wine Ale"}},"245014":{"l":"Style","e":[],"f":{"style":"American-Style Wheat Wine Ale"}},"245015":{"l":"Style","e":[],"f":{"style":"Golden or Blonde Ale"}},"245016":{"l":"Style","e":[],"f":{"style":"American-Style Brown Ale"}},"245017":{"l":"Style","e":[],"f":{"style":"Smoke Porter"}},"245018":{"l":"Style","e":[],"f":{"style":"American-Style Sour Ale"}},"245019":{"l":"Style","e":[],"f":{"style":"American-Style India Black Ale"}},"245020":{"l":"Style","e":[],"f":{"style":"American-Style Stout"}},"245021":{"l":"Style","e":[],"f":{"style":"American-Style Imperial Stout"}},"245022":{"l":"Style","e":[],"f":{"style":"Specialty Stouts"}},"245023":{"l":"Style","e":[],"f":{"style":"American-Style Imperial Porter"}},"245024":{"l":"Style","e":[],"f":{"style":"Porter"}},"245025":{"l":"Style","e":[],"f":{"style":"German-Style Kolsch"}},"245026":{"l":"Style","e":[],"f":{"style":"Berliner-Style Weisse"}},"245027":{"l":"Style","e":[],"f":{"style":"Leipzig-Style Gose"}},"245028":{"l":"Style","e":[],"f":{"style":"South German-Style Hefeweizen"}},"245029":{"l":"Style","e":[],"f":{"style":"South German-Style Kristal Weizen"}},"245030":{"l":"Style","e":[],"f":{"style":"German-Style Leichtes Weizen"}},"245031":{"l":"Style","e":[],"f":{"style":"South German-Style Bernsteinfarbenes Weizen"}},"245032":{"l":"Style","e":[],"f":{"style":"South German-Style Dunkel Weizen"}},"245033":{"l":"Style","e":[],"f":{"style":"South German-Style Weizenbock"}},"245034":{"l":"Style","e":[],"f":{"style":"Bamberg-Style Weiss Rauchbier"}},"245035":{"l":"Style","e":[],"f":{"style":"German-Style Brown Ale/Altbier"}},"245036":{"l":"Style","e":[],"f":{"style":"Kellerbier - Ale"}},"245037":{"l":"Style","e":[],"f":{"style":"Belgian-Style Flanders/Oud Bruin"}},"245038":{"l":"Style","e":[],"f":{"style":"Belgian-Style Dubbel"}},"245039":{"l":"Style","e":[],"f":{"style":"Belgian-Style Tripel"}},"245040":{"l":"Style","e":[],"f":{"style":"Belgian-Style Quadrupel"}},"245041":{"l":"Style","e":[],"f":{"style":"Belgian-Style Blonde Ale"}},"245042":{"l":"Style","e":[],"f":{"style":"Belgian-Style Pale Ale"}},"245043":{"l":"Style","e":[],"f":{"style":"Belgian-Style Pale Strong Ale"}},"245044":{"l":"Style","e":[],"f":{"style":"Belgian-Style Dark Strong Ale"}},"245045":{"l":"Style","e":[],"f":{"style":"Belgian-Style White"}},"245046":{"l":"Style","e":[],"f":{"style":"Belgian-Style Lambic"}},"245047":{"l":"Style","e":[],"f":{"style":"Belgian-Style Gueuze Lambic"}},"245048":{"l":"Style","e":[],"f":{"style":"Belgian-Style Fruit Lambic"}},"245049":{"l":"Style","e":[],"f":{"style":"Belgian-Style Table Beer"}},"245050":{"l":"Style","e":[],"f":{"style":"Other Belgian-Style Ales"}},"245051":{"l":"Style","e":[],"f":{"style":"French-Style Biere de Garde"}},"245052":{"l":"Style","e":[],"f":{"style":"French & Belgian-Style Saison"}},"245053":{"l":"Style","e":[],"f":{"style":"International-Style Pale Ale"}},"245054":{"l":"Style","e":[],"f":{"style":"Australasian-Style Pale Ale"}},"245055":{"l":"Style","e":[],"f":{"style":"German-Style Pilsener"}},"245056":{"l":"Style","e":[],"f":{"style":"Bohemian-Style Pilsener"}},"245057":{"l":"Style","e":[],"f":{"style":"European Low-Alcohol Lager"}},"245058":{"l":"Style","e":[],"f":{"style":"Munchner-Style Helles"}},"245059":{"l":"Style","e":[],"f":{"style":"Dortmunder/European-Style Export"}},"245060":{"l":"Style","e":[],"f":{"style":"Vienna-Style Lager"}},"245061":{"l":"Style","e":[],"f":{"style":"German-Style Marzen"}},"245062":{"l":"Style","e":[],"f":{"style":"German-Style Oktoberfest"}},"245063":{"l":"Style","e":[],"f":{"style":"European-Style Dark"}},"245064":{"l":"Style","e":[],"f":{"style":"German-Style Schwarzbier"}},"245065":{"l":"Style","e":[],"f":{"style":"Bamberg-Style Marzen"}},"245066":{"l":"Style","e":[],"f":{"style":"Bamberg-Style Helles Rauchbier"}},"245067":{"l":"Style","e":[],"f":{"style":"Bamberg-Style Bock Rauchbier"}},"245068":{"l":"Style","e":[],"f":{"style":"Traditional German-Style Bock"}},"245069":{"l":"Style","e":[],"f":{"style":"German-Style Heller Bock/Maibock"}},"245070":{"l":"Style","e":[],"f":{"style":"German-Style Doppelbock"}},"245071":{"l":"Style","e":[],"f":{"style":"German-Style Eisbock"}},"245072":{"l":"Style","e":[],"f":{"style":"Kellerbier - Lager"}},"245073":{"l":"Style","e":[],"f":{"style":"American-Style Lager"}},"245074":{"l":"Style","e":[],"f":{"style":"American-Style Light Lager"}},"245075":{"l":"Style","e":[],"f":{"style":"American-Style Low-Carb Light Lager"}},"245076":{"l":"Style","e":[],"f":{"style":"American-Style Amber Lager"}},"245077":{"l":"Style","e":[],"f":{"style":"American-Style Premium Lager"}},"245078":{"l":"Style","e":[],"f":{"style":"American-Style Pilsener"}},"245079":{"l":"Style","e":[],"f":{"style":"American-Style Ice Lager"}},"245080":{"l":"Style","e":[],"f":{"style":"American-Style Malt Liquor"}},"245081":{"l":"Style","e":[],"f":{"style":"American-Style Amber Lager"}},"245082":{"l":"Style","e":[],"f":{"style":"American-Style Marzen/Oktoberfest"}},"245083":{"l":"Style","e":[],"f":{"style":"American-Style Dark Lager"}},"245084":{"l":"Style","e":[],"f":{"style":"Baltic-Style Porter"}},"245085":{"l":"Style","e":[],"f":{"style":"Australasian-Style Light Lager"}},"245086":{"l":"Style","e":[],"f":{"style":"Latin American-Style Light Lager"}},"245087":{"l":"Style","e":[],"f":{"style":"Tropical-Style Light Lager"}},"245088":{"l":"Style","e":[],"f":{"style":"International-Style Pilsener"}},"245089":{"l":"Style","e":[],"f":{"style":"Dry Lager"}},"245090":{"l":"Style","e":[],"f":{"style":"Session Beer"}},"245091":{"l":"Style","e":[],"f":{"style":"American-Style Cream Ale or Lager"}},"245092":{"l":"Style","e":[],"f":{"style":"California Common Beer"}},"245093":{"l":"Style","e":[],"f":{"style":"Japanese Sake-Yeast Beer"}},"245094":{"l":"Style","e":[],"f":{"style":"Light American Wheat Ale or Lager"}},"245095":{"l":"Style","e":[],"f":{"style":"Fruit Wheat Ale or Lager"}},"245096":{"l":"Style","e":[],"f":{"style":"Dark American Wheat Ale or Lager"}},"245097":{"l":"Style","e":[],"f":{"style":"American Rye Ale or Lager"}},"245098":{"l":"Style","e":[],"f":{"style":"German-Style Rye Ale"}},"245099":{"l":"Style","e":[],"f":{"style":"Fruit Beer"}},"245100":{"l":"Style","e":[],"f":{"style":"Field Beer"}},"245101":{"l":"Style","e":[],"f":{"style":"Pumpkin Beer"}},"245102":{"l":"Style","e":[],"f":{"style":"Chocolate/Cocoa-Flavored Beer"}},"245103":{"l":"Style","e":[],"f":{"style":"Coffee-Flavored Beer"}},"245104":{"l":"Style","e":[],"f":{"style":"Herb and Spice Beer"}},"245105":{"l":"Style","e":[],"f":{"style":"Specialty Beer"}},"245106":{"l":"Style","e":[],"f":{"style":"Specialty Honey Lager or Ale"}},"245107":{"l":"Style","e":[],"f":{"style":"Gluten-Free Beer"}},"245108":{"l":"Style","e":[],"f":{"style":"Smoke Beer"}},"245109":{"l":"Style","e":[],"f":{"style":"Experimental Beer"}},"245110":{"l":"Style","e":[],"f":{"style":"Out of Category"}},"245111":{"l":"Style","e":[],"f":{"style":"Wood- and Barrel-Aged Beer"}},"245112":{"l":"Style","e":[],"f":{"style":"Wood- and Barrel-Aged Pale to Amber Beer"}},"282260":{"l":"Beer","e":[{"t":282556,"d":true}],"f":{"abv":6.8,"name":"Brune (Brown)"}},"282261":{"l":"Beer","e":[{"t":282558,"d":true}],"f":{"abv":9.2,"name":"Rochefort 8"}},"282262":{"l":"Beer","e":[{"t":244869,"d":true}],"f":{"abv":4.8,"name":"Scottish Ale"}},"282263":{"l":"Beer","e":[{"t":244874,"d":true}],"f":{"abv":0,"name":"Bourbon Imperial Stout"}},"282264":{"l":"Beer","e":[{"t":244874,"d":true}],"f":{"abv":0,"name":"Witbier"}},"282265":{"l":"Beer","e":[{"t":244874,"d":true}],"f":{"abv":0,"name":"Brout"}},"282266":{"l":"Beer","e":[{"t":244875,"d":true}],"f":{"abv":0,"name":"JubilÃ¤ums German Pils"}},"282267":{"l":"Beer","e":[{"t":244877,"d":true}],"f":{"abv":5.3,"name":"Alaskan Summer Ale"}},"282268":{"l":"Beer","e":[{"t":244878,"d":true}],"f":{"abv":5.4,"name":"Export"}},"282269":{"l":"Beer","e":[{"t":244879,"d":true}],"f":{"abv":5.2,"name":"Luksusa"}},"282270":{"l":"Beer","e":[{"t":244879,"d":true}],"f":{"abv":5,"name":"Zelta"}},"282271":{"l":"Beer","e":[{"t":244881,"d":true}],"f":{"abv":10,"name":"Grand Cru 2006"}},"282272":{"l":"Beer","e":[{"t":244881,"d":true}],"f":{"abv":10,"name":"Horny Devil"}},"282273":{"l":"Beer","e":[{"t":244881,"d":true}],"f":{"abv":10,"name":"Old Numbskull 2003"}},"282274":{"l":"Beer","e":[{"t":244881,"d":true}],"f":{"abv":0,"name":"Lil Devil"}},"282275":{"l":"Beer","e":[{"t":244881,"d":true}],"f":{"abv":10,"name":"Grand Cru 2003"}},"282276":{"l":"Beer","e":[{"t":244881,"d":true}],"f":{"abv":5.5,"name":"Anvil Ale"}},"282277":{"l":"Beer","e":[{"t":244882,"d":true}],"f":{"abv":0,"name":"Macadamia Nut Brown Ale"}},"282278":{"l":"Beer","e":[{"t":244882,"d":true}],"f":{"abv":0,"name":"Macadamia Nut Brown"}},"282279":{"l":"Beer","e":[{"t":244883,"d":true}],"f":{"abv":10,"name":"Four"}},"282280":{"l":"Beer","e":[{"t":244883,"d":true}],"f":{"abv":7.2,"name":"Grand Cru"}},"282281":{"l":"Beer","e":[{"t":244883,"d":true}],"f":{"abv":9,"name":"Tripel Reserve"}},"282282":{"l":"Beer","e":[{"t":244883,"d":true}],"f":{"abv":0,"name":"Double Ale"}},"282283":{"l":"Beer","e":[{"t":244885,"d":true}],"f":{"abv":4.7,"name":"Bayrisch Hell"}},"282284":{"l":"Beer","e":[{"t":244886,"d":true}],"f":{"abv":0,"name":"SailerbrÃ¤u Rauchenfels Steinweizen"}},"282285":{"l":"Beer","e":[{"t":244889,"d":true}],"f":{"abv":5.2,"name":"Spezial"}},"282286":{"l":"Beer","e":[{"t":244889,"d":true}],"f":{"abv":4.9,"name":"Pils"}},"282287":{"l":"Beer","e":[{"t":244891,"d":true}],"f":{"abv":0,"name":"Hemp Ale"}},"282288":{"l":"Beer","e":[{"t":244891,"d":true}],"f":{"abv":0,"name":"Payton Pilsner"}},"282289":{"l":"Beer","e":[{"t":244898,"d":true}],"f":{"abv":10,"name":"Old Foghorn 2001"}},"282290":{"l":"Beer","e":[{"t":244898,"d":true}],"f":{"abv":0,"name":"Christmas Ale 2007"}},"282291":{"l":"Beer","e":[{"t":244898,"d":true}],"f":{"abv":9.4,"name":"Old Foghorn 2006"}},"282292":{"l":"Beer","e":[{"t":244898,"d":true}],"f":{"abv":0,"name":"Christmas Ale 2003"}},"282293":{"l":"Beer","e":[{"t":244898,"d":true}],"f":{"abv":10,"name":"Old Foghorn 2002"}},"282294":{"l":"Beer","e":[{"t":244898,"d":true}],"f":{"abv":10,"name":"Old Foghorn 1996"}},"282295":{"l":"Beer","e":[{"t":244898,"d":true}],"f":{"abv":0,"name":"Our Special Ale 1995"}},"282296":{"l":"Beer","e":[{"t":244898,"d":true}],"f":{"abv":0,"name":"Our Special Ale 1994"}},"282297":{"l":"Beer","e":[{"t":244898,"d":true}],"f":{"abv":10,"name":"Old Foghorn 1998"}},"282298":{"l":"Beer","e":[{"t":244898,"d":true}],"f":{"abv":0,"name":"Our Special Ale 1992"}},"282299":{"l":"Beer","e":[{"t":244898,"d":true}],"f":{"abv":0,"name":"Our Special Ale 1997"}},"282300":{"l":"Beer","e":[{"t":244898,"d":true}],"f":{"abv":0,"name":"Our Special Ale 1996"}},"282301":{"l":"Beer","e":[{"t":244899,"d":true}],"f":{"abv":0,"name":"WeiÃŸbier Dunkel"}},"282302":{"l":"Beer","e":[{"t":244899,"d":true}],"f":{"abv":4.8,"name":"Hell"}},"282303":{"l":"Beer","e":[{"t":244900,"d":true}],"f":{"abv":0,"name":"Winter Solstice Seasonal Ale 2002"}},"282304":{"l":"Beer","e":[{"t":244900,"d":true}],"f":{"abv":0,"name":"Horn of the Bear Barleywine"}},"282305":{"l":"Beer","e":[{"t":244900,"d":true}],"f":{"abv":0,"name":"Winter Solstice Seasonal Ale 1992"}},"282306":{"l":"Beer","e":[{"t":244903,"d":true}],"f":{"abv":5.2,"name":"Spring Heat Spiced Wheat"}},"282307":{"l":"Beer","e":[{"t":244903,"d":true}],"f":{"abv":6.6,"name":"Bud Extra"}},"282308":{"l":"Beer","e":[{"t":244904,"d":true}],"f":{"abv":5,"name":"Dom Blonde KÃ¶lsch"}},"282309":{"l":"Beer","e":[{"t":244904,"d":true}],"f":{"abv":4.3,"name":"Sophie's Sparkling Ale"}},"282310":{"l":"Beer","e":[{"t":244904,"d":true}],"f":{"abv":7,"name":"Rauchbock"}},"282311":{"l":"Beer","e":[{"t":244905,"d":true}],"f":{"abv":0,"name":"Adler BrÃ¤u Bucky Brau Barleywine"}},"282312":{"l":"Beer","e":[{"t":244905,"d":true}],"f":{"abv":0,"name":"Adler BrÃ¤u Pumpkin Spice"}},"282313":{"l":"Beer","e":[{"t":244905,"d":true}],"f":{"abv":0,"name":"Adler BrÃ¤u Ginseng Lager"}},"282314":{"l":"Beer","e":[{"t":244905,"d":true}],"f":{"abv":0,"name":"Adler BrÃ¤u Marquette Pilsner"}},"282315":{"l":"Beer","e":[{"t":244905,"d":true}],"f":{"abv":0,"name":"Adler BrÃ¤u Cherry Creek Cherry Flavored Lager"}},"282316":{"l":"Beer","e":[{"t":244905,"d":true}],"f":{"abv":0,"name":"Adler BrÃ¤u 1848 Lager"}},"282317":{"l":"Beer","e":[{"t":244906,"d":true}],"f":{"abv":0,"name":"Arcadia ESB"}},"282318":{"l":"Beer","e":[{"t":244906,"d":true}],"f":{"abv":0,"name":"Lake Superior ESB"}},"282319":{"l":"Beer","e":[{"t":244907,"d":true}],"f":{"abv":0,"name":"Bavarian Dark Wheat Beer"}},"282320":{"l":"Beer","e":[{"t":244909,"d":true}],"f":{"abv":0,"name":"Edomae"}},"282321":{"l":"Beer","e":[{"t":244870,"d":true},{"t":244910,"d":true},{"t":244979,"d":true}],"f":{"abv":0,"name":"Abbey Ale"}},"282322":{"l":"Beer","e":[{"t":244871,"d":true},{"t":244910,"d":true},{"t":244981,"d":true}],"f":{"abv":5.5,"name":"Adnams Explorer"}},"282323":{"l":"Beer","e":[{"t":282553,"d":true},{"t":244910,"d":true},{"t":244982,"d":true}],"f":{"abv":3.6,"name":"Bitter American"}},"282324":{"l":"Beer","e":[{"t":282553,"d":true},{"t":244910,"d":true},{"t":244982,"d":true}],"f":{"abv":5.2,"name":"Potrero ESB"}},"282325":{"l":"Beer","e":[{"t":244871,"d":true},{"t":244910,"d":true},{"t":244983,"d":true}],"f":{"abv":6.3,"name":"Broadside Ale"}},"282326":{"l":"Beer","e":[{"t":244871,"d":true},{"t":244910,"d":true},{"t":244983,"d":true}],"f":{"abv":4.5,"name":"Adnam's Suffolk Special Bitter"}},"282327":{"l":"Beer","e":[{"t":244877,"d":true},{"t":244910,"d":true},{"t":244983,"d":true}],"f":{"abv":5,"name":"Alaskan ESB"}},"282328":{"l":"Beer","e":[{"t":244894,"d":true},{"t":244910,"d":true},{"t":244983,"d":true}],"f":{"abv":5.35,"name":"Amherst ESB"}},"282329":{"l":"Beer","e":[{"t":244898,"d":true},{"t":244910,"d":true},{"t":244988,"d":true}],"f":{"abv":3.3,"name":"Small Beer"}},"282330":{"l":"Beer","e":[{"t":244877,"d":true},{"t":244910,"d":true},{"t":244991,"d":true}],"f":{"abv":5.3,"name":"Alaskan Amber"}},"282331":{"l":"Beer","e":[{"t":244905,"d":true},{"t":244910,"d":true},{"t":244991,"d":true}],"f":{"abv":0,"name":"Adler BrÃ¤u Winter Ale"}},"282332":{"l":"Beer","e":[{"t":244906,"d":true},{"t":244910,"d":true},{"t":244991,"d":true}],"f":{"abv":8.2,"name":"Big Dick's Olde Ale"}},"282333":{"l":"Beer","e":[{"t":244881,"d":true},{"t":244910,"d":true},{"t":244993,"d":true}],"f":{"abv":9.5,"name":"Wee Heavy"}},"282334":{"l":"Beer","e":[{"t":244894,"d":true},{"t":244910,"d":true},{"t":244993,"d":true}],"f":{"abv":7.2,"name":"Half in the Bagpipe"}},"282335":{"l":"Beer","e":[{"t":244895,"d":true},{"t":244910,"d":true},{"t":244993,"d":true}],"f":{"abv":8.6,"name":"Loyal Duke Scotch Ale"}},"282336":{"l":"Beer","e":[{"t":244904,"d":true},{"t":244910,"d":true},{"t":244993,"d":true}],"f":{"abv":5.2,"name":"Jolly Scot Scottish Ale"}},"282337":{"l":"Beer","e":[{"t":244906,"d":true},{"t":244910,"d":true},{"t":244993,"d":true}],"f":{"abv":0,"name":"Scotch Ale"}},"282338":{"l":"Beer","e":[{"t":244877,"d":true},{"t":244910,"d":true},{"t":244999,"d":true}],"f":{"abv":5.7,"name":"Alaskan Stout"}},"282339":{"l":"Beer","e":[{"t":244903,"d":true},{"t":244911,"d":true},{"t":245000,"d":true}],"f":{"abv":0,"name":"Michelob Irish Red"}},"282340":{"l":"Beer","e":[{"t":244908,"d":true},{"t":244911,"d":true},{"t":245001,"d":true}],"f":{"abv":4.3,"name":"Guinness Draught"}},"282341":{"l":"Beer","e":[{"t":244908,"d":true},{"t":244911,"d":true},{"t":245002,"d":true}],"f":{"abv":7.5,"name":"Foreign Extra Stout"}},"282342":{"l":"Beer","e":[{"t":282552,"d":true},{"t":244911,"d":true},{"t":245003,"d":true}],"f":{"abv":6.8,"name":"(512) Pecan Porter"}},"282343":{"l":"Beer","e":[{"t":282552,"d":true},{"t":244911,"d":true},{"t":245003,"d":true}],"f":{"abv":8.2,"name":"(512) Whiskey Barrel Aged Double Pecan Porter"}},"282344":{"l":"Beer","e":[{"t":282553,"d":true},{"t":244911,"d":true},{"t":245003,"d":true}],"f":{"abv":5.5,"name":"General Pippo's Porter"}},"282345":{"l":"Beer","e":[{"t":244876,"d":true},{"t":244911,"d":true},{"t":245003,"d":true}],"f":{"abv":0,"name":"Irvington Porter"}},"282346":{"l":"Beer","e":[{"t":244877,"d":true},{"t":244911,"d":true},{"t":245003,"d":true}],"f":{"abv":6.5,"name":"Alaskan Smoked Porter"}},"282347":{"l":"Beer","e":[{"t":244882,"d":true},{"t":244911,"d":true},{"t":245003,"d":true}],"f":{"abv":0,"name":"Pau Hana Porter"}},"282348":{"l":"Beer","e":[{"t":244884,"d":true},{"t":244911,"d":true},{"t":245003,"d":true}],"f":{"abv":5.7,"name":"Pawn Shop Porter"}},"282349":{"l":"Beer","e":[{"t":244887,"d":true},{"t":244911,"d":true},{"t":245003,"d":true}],"f":{"abv":0,"name":"Limestone English Style Porter (discontinued)"}},"282350":{"l":"Beer","e":[{"t":244894,"d":true},{"t":244911,"d":true},{"t":245003,"d":true}],"f":{"abv":4.6,"name":"Puffers Smoked Porter"}},"282351":{"l":"Beer","e":[{"t":244898,"d":true},{"t":244911,"d":true},{"t":245003,"d":true}],"f":{"abv":5.6,"name":"Porter"}},"282352":{"l":"Beer","e":[{"t":244900,"d":true},{"t":244911,"d":true},{"t":245003,"d":true}],"f":{"abv":0,"name":"Deep Enders Dark"}},"282353":{"l":"Beer","e":[{"t":244902,"d":true},{"t":244911,"d":true},{"t":245003,"d":true}],"f":{"abv":0,"name":"London Porter"}},"282354":{"l":"Beer","e":[{"t":244904,"d":true},{"t":244911,"d":true},{"t":245003,"d":true}],"f":{"abv":5.4,"name":"Pennypacker Porter"}},"282355":{"l":"Beer","e":[{"t":244904,"d":true},{"t":244911,"d":true},{"t":245003,"d":true}],"f":{"abv":0,"name":"Coconut Porter"}},"282356":{"l":"Beer","e":[{"t":244905,"d":true},{"t":244911,"d":true},{"t":245003,"d":true}],"f":{"abv":0,"name":"Adler BrÃ¤u Classic Porter"}},"282357":{"l":"Beer","e":[{"t":244906,"d":true},{"t":244911,"d":true},{"t":245003,"d":true}],"f":{"abv":0,"name":"London Porter"}},"282358":{"l":"Beer","e":[{"t":244909,"d":true},{"t":244911,"d":true},{"t":245003,"d":true}],"f":{"abv":0,"name":"Kuronama"}},"282359":{"l":"Beer","e":[{"t":282552,"d":true},{"t":244912,"d":true},{"t":245004,"d":true}],"f":{"abv":5.8,"name":"(512) Pale"}},"282360":{"l":"Beer","e":[{"t":282553,"d":true},{"t":244912,"d":true},{"t":245004,"d":true}],"f":{"abv":5.2,"name":"Amendment Pale Ale"}},"282361":{"l":"Beer","e":[{"t":244870,"d":true},{"t":244912,"d":true},{"t":245004,"d":true}],"f":{"abv":5,"name":"Restoration Pale Ale"}},"282362":{"l":"Beer","e":[{"t":244881,"d":true},{"t":244912,"d":true},{"t":245004,"d":true}],"f":{"abv":5,"name":"X Extra Pale Ale"}},"282363":{"l":"Beer","e":[{"t":244882,"d":true},{"t":244912,"d":true},{"t":245004,"d":true}],"f":{"abv":0,"name":"Golden Ale"}},"282364":{"l":"Beer","e":[{"t":244883,"d":true},{"t":244912,"d":true},{"t":245004,"d":true}],"f":{"abv":0,"name":"Speciale Reserve Ale"}},"282365":{"l":"Beer","e":[{"t":244887,"d":true},{"t":244912,"d":true},{"t":245004,"d":true}],"f":{"abv":0,"name":"Kentucky Ale"}},"282366":{"l":"Beer","e":[{"t":244887,"d":true},{"t":244912,"d":true},{"t":245004,"d":true}],"f":{"abv":0,"name":"Limestone Crisp-Hoppy Pale Ale (discontinued)"}},"282367":{"l":"Beer","e":[{"t":244891,"d":true},{"t":244912,"d":true},{"t":245004,"d":true}],"f":{"abv":0,"name":"Aurora Amber Ale"}},"282368":{"l":"Beer","e":[{"t":244891,"d":true},{"t":244912,"d":true},{"t":245004,"d":true}],"f":{"abv":0,"name":"Golden Light"}},"282369":{"l":"Beer","e":[{"t":244894,"d":true},{"t":244912,"d":true},{"t":245004,"d":true}],"f":{"abv":5.25,"name":"North Pleasant Pale Ale"}},"282370":{"l":"Beer","e":[{"t":244894,"d":true},{"t":244912,"d":true},{"t":245004,"d":true}],"f":{"abv":5.5,"name":"Graduation Ale"}},"282371":{"l":"Beer","e":[{"t":244898,"d":true},{"t":244912,"d":true},{"t":245004,"d":true}],"f":{"abv":6,"name":"Liberty Ale"}},"282372":{"l":"Beer","e":[{"t":244902,"d":true},{"t":244912,"d":true},{"t":245004,"d":true}],"f":{"abv":0,"name":"Bacchanal Blonde"}},"282373":{"l":"Beer","e":[{"t":244903,"d":true},{"t":244912,"d":true},{"t":245004,"d":true}],"f":{"abv":5.5,"name":"Green Valley Stone Mill Pale Ale"}},"282374":{"l":"Beer","e":[{"t":244903,"d":true},{"t":244912,"d":true},{"t":245004,"d":true}],"f":{"abv":0,"name":"Pacific Ridge Pale Ale"}},"282375":{"l":"Beer","e":[{"t":244903,"d":true},{"t":244912,"d":true},{"t":245004,"d":true}],"f":{"abv":0,"name":"Michelob Pale Ale"}},"282376":{"l":"Beer","e":[{"t":244904,"d":true},{"t":244912,"d":true},{"t":245004,"d":true}],"f":{"abv":4.9,"name":"Purist Pale Ale"}},"282377":{"l":"Beer","e":[{"t":244905,"d":true},{"t":244912,"d":true},{"t":245004,"d":true}],"f":{"abv":0,"name":"Adler BrÃ¤u Fox Classic River Ale"}},"282378":{"l":"Beer","e":[{"t":244906,"d":true},{"t":244912,"d":true},{"t":245004,"d":true}],"f":{"abv":0,"name":"India Pale Ale"}},"282379":{"l":"Beer","e":[{"t":244906,"d":true},{"t":244912,"d":true},{"t":245004,"d":true}],"f":{"abv":0,"name":"Anglers Ale"}},"282380":{"l":"Beer","e":[{"t":244906,"d":true},{"t":244912,"d":true},{"t":245004,"d":true}],"f":{"abv":0,"name":"Sky High Rye"}},"282381":{"l":"Beer","e":[{"t":282555,"d":true},{"t":244912,"d":true},{"t":245007,"d":true}],"f":{"abv":5.9,"name":"JuleÃ¸l"}},"282382":{"l":"Beer","e":[{"t":282558,"d":true},{"t":244912,"d":true},{"t":245007,"d":true}],"f":{"abv":7.5,"name":"Rochefort 6"}},"282383":{"l":"Beer","e":[{"t":244870,"d":true},{"t":244912,"d":true},{"t":245007,"d":true}],"f":{"abv":0,"name":"Turbodog"}},"282384":{"l":"Beer","e":[{"t":244884,"d":true},{"t":244912,"d":true},{"t":245007,"d":true}],"f":{"abv":10.5,"name":"Rude Elf's Reserve"}},"282385":{"l":"Beer","e":[{"t":244903,"d":true},{"t":244912,"d":true},{"t":245007,"d":true}],"f":{"abv":5.5,"name":"Michelob Dunkel Weisse"}},"282386":{"l":"Beer","e":[{"t":282552,"d":true},{"t":244912,"d":true},{"t":245009,"d":true}],"f":{"abv":7,"name":"(512) IPA"}},"282387":{"l":"Beer","e":[{"t":282553,"d":true},{"t":244912,"d":true},{"t":245009,"d":true}],"f":{"abv":7.2,"name":"21A IPA"}},"282388":{"l":"Beer","e":[{"t":244870,"d":true},{"t":244912,"d":true},{"t":245009,"d":true}],"f":{"abv":6.5,"name":"Abita Jockamo IPA"}},"282389":{"l":"Beer","e":[{"t":244877,"d":true},{"t":244912,"d":true},{"t":245009,"d":true}],"f":{"abv":6.2,"name":"Alaskan IPA"}},"282390":{"l":"Beer","e":[{"t":244881,"d":true},{"t":244912,"d":true},{"t":245009,"d":true}],"f":{"abv":7.25,"name":"IPA"}},"282391":{"l":"Beer","e":[{"t":244884,"d":true},{"t":244912,"d":true},{"t":245009,"d":true}],"f":{"abv":7,"name":"Hop Explosion"}},"282392":{"l":"Beer","e":[{"t":244888,"d":true},{"t":244912,"d":true},{"t":245009,"d":true}],"f":{"abv":7,"name":"Duet"}},"282393":{"l":"Beer","e":[{"t":244888,"d":true},{"t":244912,"d":true},{"t":245009,"d":true}],"f":{"abv":7,"name":"Nelson"}},"282394":{"l":"Beer","e":[{"t":244894,"d":true},{"t":244912,"d":true},{"t":245009,"d":true}],"f":{"abv":5.3,"name":"Cascade IPA"}},"282395":{"l":"Beer","e":[{"t":244900,"d":true},{"t":244912,"d":true},{"t":245009,"d":true}],"f":{"abv":7,"name":"Hop Ottin IPA"}},"282396":{"l":"Beer","e":[{"t":244904,"d":true},{"t":244912,"d":true},{"t":245009,"d":true}],"f":{"abv":6.2,"name":"Hoppy Trails India Pale Ale"}},"282397":{"l":"Beer","e":[{"t":244904,"d":true},{"t":244912,"d":true},{"t":245009,"d":true}],"f":{"abv":0,"name":"IPA Series (Simcoe)"}},"282398":{"l":"Beer","e":[{"t":244904,"d":true},{"t":244912,"d":true},{"t":245009,"d":true}],"f":{"abv":0,"name":"IPA Series (Zeus)"}},"282399":{"l":"Beer","e":[{"t":244904,"d":true},{"t":244912,"d":true},{"t":245009,"d":true}],"f":{"abv":0,"name":"IPA Series (Horizon)"}},"282400":{"l":"Beer","e":[{"t":282553,"d":true},{"t":244912,"d":true},{"t":245010,"d":true}],"f":{"abv":9.8,"name":"Double Trouble IPA"}},"282401":{"l":"Beer","e":[{"t":244888,"d":true},{"t":244912,"d":true},{"t":245010,"d":true}],"f":{"abv":8,"name":"Pure Hoppiness"}},"282402":{"l":"Beer","e":[{"t":244906,"d":true},{"t":244912,"d":true},{"t":245010,"d":true}],"f":{"abv":8,"name":"Hopmouth Double IPA"}},"282403":{"l":"Beer","e":[{"t":282553,"d":true},{"t":244912,"d":true},{"t":245011,"d":true}],"f":{"abv":5.8,"name":"North Star Red"}},"282404":{"l":"Beer","e":[{"t":244871,"d":true},{"t":244912,"d":true},{"t":245011,"d":true}],"f":{"abv":4.5,"name":"Adnams Fisherman"}},"282405":{"l":"Beer","e":[{"t":244874,"d":true},{"t":244912,"d":true},{"t":245011,"d":true}],"f":{"abv":0,"name":"Heater"}},"282406":{"l":"Beer","e":[{"t":244882,"d":true},{"t":244912,"d":true},{"t":245011,"d":true}],"f":{"abv":0,"name":"Amber Ale"}},"282407":{"l":"Beer","e":[{"t":244884,"d":true},{"t":244912,"d":true},{"t":245011,"d":true}],"f":{"abv":5.2,"name":"Fegley's Amber Lager"}},"282408":{"l":"Beer","e":[{"t":244887,"d":true},{"t":244912,"d":true},{"t":245011,"d":true}],"f":{"abv":0,"name":"Limestone 1897 Original Amber Ale (discontinued)"}},"282409":{"l":"Beer","e":[{"t":244894,"d":true},{"t":244912,"d":true},{"t":245011,"d":true}],"f":{"abv":4.6,"name":"Righteous Red"}},"282410":{"l":"Beer","e":[{"t":244900,"d":true},{"t":244912,"d":true},{"t":245011,"d":true}],"f":{"abv":5.8,"name":"Boont Amber Ale"}},"282411":{"l":"Beer","e":[{"t":244903,"d":true},{"t":244912,"d":true},{"t":245011,"d":true}],"f":{"abv":5.1,"name":"Budweiser American Ale"}},"282412":{"l":"Beer","e":[{"t":244904,"d":true},{"t":244912,"d":true},{"t":245011,"d":true}],"f":{"abv":4.8,"name":"Celtic Knot Irish Red"}},"282413":{"l":"Beer","e":[{"t":244904,"d":true},{"t":244912,"d":true},{"t":245011,"d":true}],"f":{"abv":5.7,"name":"Grinnin' Grizzly Spiced Ale"}},"282414":{"l":"Beer","e":[{"t":244905,"d":true},{"t":244912,"d":true},{"t":245011,"d":true}],"f":{"abv":0,"name":"Adler BrÃ¤u Tailgate Amber"}},"282415":{"l":"Beer","e":[{"t":244905,"d":true},{"t":244912,"d":true},{"t":245011,"d":true}],"f":{"abv":0,"name":"Adler BrÃ¤u Holiday Ale"}},"282416":{"l":"Beer","e":[{"t":244871,"d":true},{"t":244912,"d":true},{"t":245013,"d":true}],"f":{"abv":7.5,"name":"Adnams Tally Ho"}},"282417":{"l":"Beer","e":[{"t":244877,"d":true},{"t":244912,"d":true},{"t":245013,"d":true}],"f":{"abv":10.4,"name":"Alaskan Barley Wine Ale"}},"282418":{"l":"Beer","e":[{"t":244904,"d":true},{"t":244912,"d":true},{"t":245013,"d":true}],"f":{"abv":8.7,"name":"Broad Street Barleywine"}},"282419":{"l":"Beer","e":[{"t":282553,"d":true},{"t":244912,"d":true},{"t":245015,"d":true}],"f":{"abv":5,"name":"South Park Blonde"}},"282420":{"l":"Beer","e":[{"t":282556,"d":true},{"t":244912,"d":true},{"t":245015,"d":true}],"f":{"abv":6.6,"name":"Leffe Blonde"}},"282421":{"l":"Beer","e":[{"t":282557,"d":true},{"t":244912,"d":true},{"t":245015,"d":true}],"f":{"abv":6,"name":"6"}},"282422":{"l":"Beer","e":[{"t":244877,"d":true},{"t":244912,"d":true},{"t":245015,"d":true}],"f":{"abv":5.2,"name":"Alaskan Pale"}},"282423":{"l":"Beer","e":[{"t":244894,"d":true},{"t":244912,"d":true},{"t":245015,"d":true}],"f":{"abv":4.6,"name":"Bankers Gold"}},"282424":{"l":"Beer","e":[{"t":244903,"d":true},{"t":244912,"d":true},{"t":245015,"d":true}],"f":{"abv":5.4,"name":"Beach Bum Blonde Ale"}},"282425":{"l":"Beer","e":[{"t":282552,"d":true},{"t":244912,"d":true},{"t":245016,"d":true}],"f":{"abv":7.6,"name":"(512) Bruin"}},"282426":{"l":"Beer","e":[{"t":244870,"d":true},{"t":244912,"d":true},{"t":245016,"d":true}],"f":{"abv":5.5,"name":"Christmas Ale"}},"282427":{"l":"Beer","e":[{"t":244871,"d":true},{"t":244912,"d":true},{"t":245016,"d":true}],"f":{"abv":3.2,"name":"Nut Brown Ale"}},"282428":{"l":"Beer","e":[{"t":244874,"d":true},{"t":244912,"d":true},{"t":245016,"d":true}],"f":{"abv":0,"name":"Harvest Brown"}},"282429":{"l":"Beer","e":[{"t":244894,"d":true},{"t":244912,"d":true},{"t":245016,"d":true}],"f":{"abv":5.25,"name":"Massatucky Brown"}},"282430":{"l":"Beer","e":[{"t":244894,"d":true},{"t":244912,"d":true},{"t":245016,"d":true}],"f":{"abv":4.9,"name":"Raspberry Brown Ale"}},"282431":{"l":"Beer","e":[{"t":244902,"d":true},{"t":244912,"d":true},{"t":245016,"d":true}],"f":{"abv":0,"name":"Shakedown Nut Brown"}},"282432":{"l":"Beer","e":[{"t":244904,"d":true},{"t":244912,"d":true},{"t":245016,"d":true}],"f":{"abv":5.3,"name":"Trail Blaze Organic Brown Ale"}},"282433":{"l":"Beer","e":[{"t":244905,"d":true},{"t":244912,"d":true},{"t":245016,"d":true}],"f":{"abv":0,"name":"Adler BrÃ¤u Downtown Brown"}},"282434":{"l":"Beer","e":[{"t":244906,"d":true},{"t":244912,"d":true},{"t":245016,"d":true}],"f":{"abv":0,"name":"Nut Brown"}},"282435":{"l":"Beer","e":[{"t":282553,"d":true},{"t":244912,"d":true},{"t":245020,"d":true}],"f":{"abv":5.9,"name":"Oyster Point Oyster Stout"}},"282436":{"l":"Beer","e":[{"t":282553,"d":true},{"t":244912,"d":true},{"t":245020,"d":true}],"f":{"abv":5,"name":"563 Stout"}},"282437":{"l":"Beer","e":[{"t":244882,"d":true},{"t":244912,"d":true},{"t":245020,"d":true}],"f":{"abv":0,"name":"Kona Coffee Stout"}},"282438":{"l":"Beer","e":[{"t":244890,"d":true},{"t":244912,"d":true},{"t":245020,"d":true}],"f":{"abv":10.5,"name":"Podge Belgian Imperial Stout"}},"282439":{"l":"Beer","e":[{"t":244891,"d":true},{"t":244912,"d":true},{"t":245020,"d":true}],"f":{"abv":0,"name":"Sweeney Stout"}},"282440":{"l":"Beer","e":[{"t":244892,"d":true},{"t":244912,"d":true},{"t":245020,"d":true}],"f":{"abv":0,"name":"Oatmeal Stout"}},"282441":{"l":"Beer","e":[{"t":244900,"d":true},{"t":244912,"d":true},{"t":245020,"d":true}],"f":{"abv":0,"name":"Nitro Stout"}},"282442":{"l":"Beer","e":[{"t":244900,"d":true},{"t":244912,"d":true},{"t":245020,"d":true}],"f":{"abv":5.7,"name":"Barney Flats Oatmeal Stout"}},"282443":{"l":"Beer","e":[{"t":244903,"d":true},{"t":244912,"d":true},{"t":245020,"d":true}],"f":{"abv":0,"name":"Bare Knuckle Stout"}},"282444":{"l":"Beer","e":[{"t":244904,"d":true},{"t":244912,"d":true},{"t":245020,"d":true}],"f":{"abv":4.6,"name":"Susquehanna Stout"}},"282445":{"l":"Beer","e":[{"t":244905,"d":true},{"t":244912,"d":true},{"t":245020,"d":true}],"f":{"abv":0,"name":"Adler BrÃ¤u Oatmeal Stout"}},"282446":{"l":"Beer","e":[{"t":244906,"d":true},{"t":244912,"d":true},{"t":245020,"d":true}],"f":{"abv":0,"name":"Imperial Stout"}},"282447":{"l":"Beer","e":[{"t":244906,"d":true},{"t":244912,"d":true},{"t":245020,"d":true}],"f":{"abv":0,"name":"Starboard Stout"}},"282448":{"l":"Beer","e":[{"t":244908,"d":true},{"t":244912,"d":true},{"t":245020,"d":true}],"f":{"abv":5,"name":"Guinness Extra Stout"}},"282449":{"l":"Beer","e":[{"t":244908,"d":true},{"t":244912,"d":true},{"t":245020,"d":true}],"f":{"abv":4.3,"name":"Guinness Draught"}},"282450":{"l":"Beer","e":[{"t":244908,"d":true},{"t":244912,"d":true},{"t":245020,"d":true}],"f":{"abv":5,"name":"Guinness 250th Anniversary Stout"}},"282451":{"l":"Beer","e":[{"t":244881,"d":true},{"t":244912,"d":true},{"t":245021,"d":true}],"f":{"abv":12,"name":"Speedway Stout"}},"282452":{"l":"Beer","e":[{"t":244894,"d":true},{"t":244912,"d":true},{"t":245021,"d":true}],"f":{"abv":6.7,"name":"Two Sisters Imperial Stout"}},"282453":{"l":"Beer","e":[{"t":244906,"d":true},{"t":244912,"d":true},{"t":245021,"d":true}],"f":{"abv":7,"name":"Cocoa Loco"}},"282454":{"l":"Beer","e":[{"t":244894,"d":true},{"t":244913,"d":true},{"t":245028,"d":true}],"f":{"abv":4.9,"name":"Workingman's Wheat"}},"282455":{"l":"Beer","e":[{"t":244904,"d":true},{"t":244913,"d":true},{"t":245028,"d":true}],"f":{"abv":5.3,"name":"Hinterland Hefe Weizen"}},"282456":{"l":"Beer","e":[{"t":244905,"d":true},{"t":244913,"d":true},{"t":245028,"d":true}],"f":{"abv":0,"name":"Adler BrÃ¤u Weiss"}},"282457":{"l":"Beer","e":[{"t":244904,"d":true},{"t":244913,"d":true},{"t":245033,"d":true}],"f":{"abv":7.2,"name":"Volks Weizenbock"}},"282458":{"l":"Beer","e":[{"t":282552,"d":true},{"t":244913,"d":true},{"t":245035,"d":true}],"f":{"abv":6,"name":"(512) ALT"}},"282459":{"l":"Beer","e":[{"t":244894,"d":true},{"t":244913,"d":true},{"t":245035,"d":true}],"f":{"abv":6.85,"name":"Olde #8 Anniversary Ale"}},"282460":{"l":"Beer","e":[{"t":282557,"d":true},{"t":244914,"d":true},{"t":245038,"d":true}],"f":{"abv":8,"name":"8"}},"282461":{"l":"Beer","e":[{"t":244872,"d":true},{"t":244914,"d":true},{"t":245038,"d":true}],"f":{"abv":6.8,"name":"Affligem Dubbel"}},"282462":{"l":"Beer","e":[{"t":282557,"d":true},{"t":244914,"d":true},{"t":245039,"d":true}],"f":{"abv":10,"name":"10"}},"282463":{"l":"Beer","e":[{"t":282558,"d":true},{"t":244914,"d":true},{"t":245040,"d":true}],"f":{"abv":11.3,"name":"Rochefort 10"}},"282464":{"l":"Beer","e":[{"t":282552,"d":true},{"t":244914,"d":true},{"t":245043,"d":true}],"f":{"abv":8,"name":"One"}},"282465":{"l":"Beer","e":[{"t":282552,"d":true},{"t":244914,"d":true},{"t":245045,"d":true}],"f":{"abv":5.2,"name":"(512) Wit"}},"282466":{"l":"Beer","e":[{"t":244870,"d":true},{"t":244914,"d":true},{"t":245045,"d":true}],"f":{"abv":5.1,"name":"Satsuma Harvest Wit"}},"282467":{"l":"Beer","e":[{"t":244877,"d":true},{"t":244914,"d":true},{"t":245045,"d":true}],"f":{"abv":5.3,"name":"Alaskan White Ale"}},"282468":{"l":"Beer","e":[{"t":244883,"d":true},{"t":244914,"d":true},{"t":245045,"d":true}],"f":{"abv":5,"name":"Allagash White"}},"282469":{"l":"Beer","e":[{"t":244884,"d":true},{"t":244914,"d":true},{"t":245045,"d":true}],"f":{"abv":5.2,"name":"Steelgaarden Wit"}},"282470":{"l":"Beer","e":[{"t":244903,"d":true},{"t":244914,"d":true},{"t":245045,"d":true}],"f":{"abv":5.2,"name":"Shock Top"}},"282471":{"l":"Beer","e":[{"t":244903,"d":true},{"t":244914,"d":true},{"t":245045,"d":true}],"f":{"abv":0,"name":"Bud Light Golden Wheat"}},"282472":{"l":"Beer","e":[{"t":282553,"d":true},{"t":244914,"d":true},{"t":245048,"d":true}],"f":{"abv":5.5,"name":"Watermelon Wheat"}},"282473":{"l":"Beer","e":[{"t":282554,"d":true},{"t":244914,"d":true},{"t":245048,"d":true}],"f":{"abv":6,"name":"Oude Geuze"}},"282474":{"l":"Beer","e":[{"t":282554,"d":true},{"t":244914,"d":true},{"t":245048,"d":true}],"f":{"abv":5,"name":"Drie Fonteinen Kriek"}},"282475":{"l":"Beer","e":[{"t":244903,"d":true},{"t":244914,"d":true},{"t":245048,"d":true}],"f":{"abv":8,"name":"Wild Blue Blueberry Lager"}},"282476":{"l":"Beer","e":[{"t":244904,"d":true},{"t":244914,"d":true},{"t":245050,"d":true}],"f":{"abv":6.4,"name":"Abbey Roade Belgian Ale"}},"282477":{"l":"Beer","e":[{"t":244883,"d":true},{"t":244914,"d":true},{"t":245052,"d":true}],"f":{"abv":8.3,"name":"Allagash Fluxus 09"}},"282478":{"l":"Beer","e":[{"t":282555,"d":true},{"t":244916,"d":true},{"t":245055,"d":true}],"f":{"abv":5.5,"name":"Genuine Pilsner"}},"282479":{"l":"Beer","e":[{"t":244870,"d":true},{"t":244916,"d":true},{"t":245055,"d":true}],"f":{"abv":0,"name":"S.O.S"}},"282480":{"l":"Beer","e":[{"t":244884,"d":true},{"t":244916,"d":true},{"t":245055,"d":true}],"f":{"abv":4.7,"name":"Pig Pen Pilsener"}},"282481":{"l":"Beer","e":[{"t":244894,"d":true},{"t":244916,"d":true},{"t":245055,"d":true}],"f":{"abv":4.8,"name":"Patriots Pilsner"}},"282482":{"l":"Beer","e":[{"t":244894,"d":true},{"t":244916,"d":true},{"t":245055,"d":true}],"f":{"abv":5.2,"name":"Honey Pilsner"}},"282483":{"l":"Beer","e":[{"t":244904,"d":true},{"t":244916,"d":true},{"t":245055,"d":true}],"f":{"abv":4.8,"name":"Peregrine Pilsner"}},"282484":{"l":"Beer","e":[{"t":244870,"d":true},{"t":244916,"d":true},{"t":245060,"d":true}],"f":{"abv":0,"name":"Abita Amber"}},"282485":{"l":"Beer","e":[{"t":244870,"d":true},{"t":244916,"d":true},{"t":245060,"d":true}],"f":{"abv":0,"name":"Wheat"}},"282486":{"l":"Beer","e":[{"t":244870,"d":true},{"t":244916,"d":true},{"t":245062,"d":true}],"f":{"abv":0,"name":"Fall Fest"}},"282487":{"l":"Beer","e":[{"t":244885,"d":true},{"t":244916,"d":true},{"t":245062,"d":true}],"f":{"abv":5.5,"name":"Winterfestival"}},"282488":{"l":"Beer","e":[{"t":244894,"d":true},{"t":244916,"d":true},{"t":245062,"d":true}],"f":{"abv":5.4,"name":"Lewmeister Oktoberfest"}},"282489":{"l":"Beer","e":[{"t":244904,"d":true},{"t":244916,"d":true},{"t":245062,"d":true}],"f":{"abv":5.2,"name":"Kipona Fest"}},"282490":{"l":"Beer","e":[{"t":244891,"d":true},{"t":244916,"d":true},{"t":245064,"d":true}],"f":{"abv":0,"name":"Schwartzbier"}},"282491":{"l":"Beer","e":[{"t":282555,"d":true},{"t":244916,"d":true},{"t":245068,"d":true}],"f":{"abv":5.9,"name":"Bock Beer"}},"282492":{"l":"Beer","e":[{"t":244874,"d":true},{"t":244916,"d":true},{"t":245068,"d":true}],"f":{"abv":0,"name":"Bavarian Bock"}},"282493":{"l":"Beer","e":[{"t":244875,"d":true},{"t":244916,"d":true},{"t":245068,"d":true}],"f":{"abv":7.5,"name":"St. Martin Doppelbock"}},"282494":{"l":"Beer","e":[{"t":244877,"d":true},{"t":244916,"d":true},{"t":245068,"d":true}],"f":{"abv":7,"name":"Breakup Bock"}},"282495":{"l":"Beer","e":[{"t":244879,"d":true},{"t":244916,"d":true},{"t":245068,"d":true}],"f":{"abv":7,"name":"Porteris"}},"282496":{"l":"Beer","e":[{"t":244885,"d":true},{"t":244916,"d":true},{"t":245068,"d":true}],"f":{"abv":7.2,"name":"Cambonator Doppelbock"}},"282497":{"l":"Beer","e":[{"t":244887,"d":true},{"t":244916,"d":true},{"t":245068,"d":true}],"f":{"abv":0,"name":"Limestone Bavarian Style Bock (discontinued)"}},"282498":{"l":"Beer","e":[{"t":244894,"d":true},{"t":244916,"d":true},{"t":245068,"d":true}],"f":{"abv":5.7,"name":"Boltwood Bock"}},"282499":{"l":"Beer","e":[{"t":244898,"d":true},{"t":244916,"d":true},{"t":245068,"d":true}],"f":{"abv":5.5,"name":"Bock"}},"282500":{"l":"Beer","e":[{"t":244899,"d":true},{"t":244916,"d":true},{"t":245068,"d":true}],"f":{"abv":7,"name":"Doppelbock Dunkel"}},"282501":{"l":"Beer","e":[{"t":244903,"d":true},{"t":244916,"d":true},{"t":245068,"d":true}],"f":{"abv":0,"name":"Ziegenbock Amber"}},"282502":{"l":"Beer","e":[{"t":244905,"d":true},{"t":244916,"d":true},{"t":245068,"d":true}],"f":{"abv":0,"name":"Adler BrÃ¤u Doppel Bock Beer"}},"282503":{"l":"Beer","e":[{"t":244904,"d":true},{"t":244916,"d":true},{"t":245069,"d":true}],"f":{"abv":7.2,"name":"Anniversary Maibock"}},"282504":{"l":"Beer","e":[{"t":244870,"d":true},{"t":244916,"d":true},{"t":245070,"d":true}],"f":{"abv":8,"name":"Andygator"}},"282505":{"l":"Beer","e":[{"t":282555,"d":true},{"t":244917,"d":true},{"t":245073,"d":true}],"f":{"abv":0,"name":"Classic Special Brew"}},"282506":{"l":"Beer","e":[{"t":282555,"d":true},{"t":244917,"d":true},{"t":245073,"d":true}],"f":{"abv":5.5,"name":"Gull Classic"}},"282507":{"l":"Beer","e":[{"t":244870,"d":true},{"t":244917,"d":true},{"t":245073,"d":true}],"f":{"abv":0,"name":"Abita Golden"}},"282508":{"l":"Beer","e":[{"t":244873,"d":true},{"t":244917,"d":true},{"t":245073,"d":true}],"f":{"abv":5,"name":"Catfish Cream Ale"}},"282509":{"l":"Beer","e":[{"t":244891,"d":true},{"t":244917,"d":true},{"t":245073,"d":true}],"f":{"abv":0,"name":"Honey Wheat Ale"}},"282510":{"l":"Beer","e":[{"t":244893,"d":true},{"t":244917,"d":true},{"t":245073,"d":true}],"f":{"abv":0,"name":"Hofbrauhaus Brewery & Biergarten Vienna Velvet"}},"282511":{"l":"Beer","e":[{"t":244898,"d":true},{"t":244917,"d":true},{"t":245073,"d":true}],"f":{"abv":0,"name":"Wheat"}},"282512":{"l":"Beer","e":[{"t":244900,"d":true},{"t":244917,"d":true},{"t":245073,"d":true}],"f":{"abv":0,"name":"High Rollers Wheat Beer"}},"282513":{"l":"Beer","e":[{"t":244903,"d":true},{"t":244917,"d":true},{"t":245073,"d":true}],"f":{"abv":0,"name":"Green Valley Wild Hop Lager"}},"282514":{"l":"Beer","e":[{"t":244903,"d":true},{"t":244917,"d":true},{"t":245073,"d":true}],"f":{"abv":0,"name":"Michelob Hefeweizen"}},"282515":{"l":"Beer","e":[{"t":244903,"d":true},{"t":244917,"d":true},{"t":245073,"d":true}],"f":{"abv":5.5,"name":"Bud Ice"}},"282516":{"l":"Beer","e":[{"t":244903,"d":true},{"t":244917,"d":true},{"t":245073,"d":true}],"f":{"abv":4.1,"name":"Bud Ice Light"}},"282517":{"l":"Beer","e":[{"t":244903,"d":true},{"t":244917,"d":true},{"t":245073,"d":true}],"f":{"abv":5.2,"name":"Michelob Amber Bock"}},"282518":{"l":"Beer","e":[{"t":244903,"d":true},{"t":244917,"d":true},{"t":245073,"d":true}],"f":{"abv":0,"name":"Redbridge"}},"282519":{"l":"Beer","e":[{"t":244904,"d":true},{"t":244917,"d":true},{"t":245073,"d":true}],"f":{"abv":4.5,"name":"Mountain Lager"}},"282520":{"l":"Beer","e":[{"t":244904,"d":true},{"t":244917,"d":true},{"t":245073,"d":true}],"f":{"abv":5.9,"name":"Zoigl Star Lager"}},"282521":{"l":"Beer","e":[{"t":244905,"d":true},{"t":244917,"d":true},{"t":245073,"d":true}],"f":{"abv":0,"name":"Adler BrÃ¤u Eagle Lager"}},"282522":{"l":"Beer","e":[{"t":244908,"d":true},{"t":244917,"d":true},{"t":245073,"d":true}],"f":{"abv":5,"name":"Harp Lager"}},"282523":{"l":"Beer","e":[{"t":244870,"d":true},{"t":244917,"d":true},{"t":245074,"d":true}],"f":{"abv":0,"name":"Abita Light Beer"}},"282524":{"l":"Beer","e":[{"t":244896,"d":true},{"t":244917,"d":true},{"t":245074,"d":true}],"f":{"abv":3.5,"name":"Amstel Light"}},"282525":{"l":"Beer","e":[{"t":244903,"d":true},{"t":244917,"d":true},{"t":245074,"d":true}],"f":{"abv":5,"name":"Budweiser"}},"282526":{"l":"Beer","e":[{"t":244903,"d":true},{"t":244917,"d":true},{"t":245074,"d":true}],"f":{"abv":4.2,"name":"Bud Light"}},"282527":{"l":"Beer","e":[{"t":244903,"d":true},{"t":244917,"d":true},{"t":245074,"d":true}],"f":{"abv":4.3,"name":"Budweiser Select"}},"282528":{"l":"Beer","e":[{"t":244903,"d":true},{"t":244917,"d":true},{"t":245074,"d":true}],"f":{"abv":5.9,"name":"Natural Ice"}},"282529":{"l":"Beer","e":[{"t":244903,"d":true},{"t":244917,"d":true},{"t":245074,"d":true}],"f":{"abv":4.2,"name":"Natural Light"}},"282530":{"l":"Beer","e":[{"t":244903,"d":true},{"t":244917,"d":true},{"t":245074,"d":true}],"f":{"abv":5,"name":"Bud Dry"}},"282531":{"l":"Beer","e":[{"t":244903,"d":true},{"t":244917,"d":true},{"t":245074,"d":true}],"f":{"abv":4.2,"name":"Bud Light Lime"}},"282532":{"l":"Beer","e":[{"t":244900,"d":true},{"t":244920,"d":true},{"t":245091,"d":true}],"f":{"abv":5.6,"name":"Summer Solstice Cerveza Crema"}},"282533":{"l":"Beer","e":[{"t":244870,"d":true},{"t":244920,"d":true},{"t":245094,"d":true}],"f":{"abv":0,"name":"Purple Haze"}},"282534":{"l":"Beer","e":[{"t":244870,"d":true},{"t":244920,"d":true},{"t":245094,"d":true}],"f":{"abv":4.75,"name":"Abita Purple Haze"}},"282535":{"l":"Beer","e":[{"t":244884,"d":true},{"t":244920,"d":true},{"t":245094,"d":true}],"f":{"abv":5.4,"name":"Apricot Ale"}},"282536":{"l":"Beer","e":[{"t":244898,"d":true},{"t":244920,"d":true},{"t":245094,"d":true}],"f":{"abv":4.6,"name":"Anchor Summer Beer"}},"282537":{"l":"Beer","e":[{"t":244903,"d":true},{"t":244920,"d":true},{"t":245094,"d":true}],"f":{"abv":5.3,"name":"Sun Dog Amber Wheat"}},"282538":{"l":"Beer","e":[{"t":244903,"d":true},{"t":244920,"d":true},{"t":245094,"d":true}],"f":{"abv":5.3,"name":"Michelob Hop Hound Amber Wheat"}},"282539":{"l":"Beer","e":[{"t":244904,"d":true},{"t":244920,"d":true},{"t":245094,"d":true}],"f":{"abv":4.5,"name":"Water Gap Wheat"}},"282540":{"l":"Beer","e":[{"t":244904,"d":true},{"t":244920,"d":true},{"t":245094,"d":true}],"f":{"abv":0,"name":"Wildflower Honey Wheat"}},"282541":{"l":"Beer","e":[{"t":244870,"d":true},{"t":244920,"d":true},{"t":245099,"d":true}],"f":{"abv":0,"name":"Strawberry Harvest Lager"}},"282542":{"l":"Beer","e":[{"t":244870,"d":true},{"t":244920,"d":true},{"t":245099,"d":true}],"f":{"abv":0,"name":"Triple Citra Hopped Satsuma Wit"}},"282543":{"l":"Beer","e":[{"t":244870,"d":true},{"t":244920,"d":true},{"t":245099,"d":true}],"f":{"abv":0,"name":"Strawberry"}},"282544":{"l":"Beer","e":[{"t":244870,"d":true},{"t":244920,"d":true},{"t":245099,"d":true}],"f":{"abv":0,"name":"Satsuma Wit"}},"282545":{"l":"Beer","e":[{"t":244884,"d":true},{"t":244920,"d":true},{"t":245101,"d":true}],"f":{"abv":5.2,"name":"Pumpkin Ale"}},"282546":{"l":"Beer","e":[{"t":244903,"d":true},{"t":244920,"d":true},{"t":245101,"d":true}],"f":{"abv":5.5,"name":"Jack's Pumpkin Spice Ale"}},"282547":{"l":"Beer","e":[{"t":244894,"d":true},{"t":244920,"d":true},{"t":245104,"d":true}],"f":{"abv":5.4,"name":"Heather Ale"}},"282548":{"l":"Beer","e":[{"t":244870,"d":true},{"t":244920,"d":true},{"t":245106,"d":true}],"f":{"abv":0,"name":"Honey Rye Ale"}},"282549":{"l":"Beer","e":[{"t":244877,"d":true},{"t":244920,"d":true},{"t":243097,"d":true}],"f":{"abv":6.4,"name":"Winter Ale"}},"282550":{"l":"Beer","e":[{"t":244903,"d":true},{"t":244920,"d":true},{"t":243097,"d":true}],"f":{"abv":6,"name":"Michelob Winter's Bourbon Cask Ale"}},"282551":{"l":"Beer","e":[{"t":244904,"d":true},{"t":244920,"d":true},{"t":243097,"d":true}],"f":{"abv":7.7,"name":"Batch 666"}},"282552":{"l":"Brewery","e":[{"t":208176,"d":true}],"f":{"country":"United States","website":"http://512brewing.com/","code":"78745","city":"Austin","phone":"512.707.2337","address1":"407 Radam, F200","latitude":"30.2234","name":"(512) Brewing Company","state":"Texas","longitude":"-97.7697"}},"282553":{"l":"Brewery","e":[{"t":244936,"d":true}],"f":{"country":"United States","website":"http://www.21st-amendment.com/","code":"94107","city":"San Francisco","phone":"1-415-369-0900","address1":"563 Second Street","latitude":"37.7825","name":"21st Amendment Brewery Cafe","state":"California","longitude":"-122.393"}},"282554":{"l":"Brewery","e":[{"t":208178,"d":true}],"f":{"country":"Belgium","website":"http://www.3fonteinen.be/index.htm","code":"","city":"Beersel","phone":"32-02-/-306-71-03","address1":"Hoogstraat 2A","latitude":"50.7668","name":"3 Fonteinen Brouwerij Ambachtelijke Geuzestekerij","state":"Vlaams Brabant","longitude":"4.3081"}},"282555":{"l":"Brewery","e":[{"t":241307,"d":true}],"f":{"country":"Norway","website":"http://www.aass.no","code":"","city":"Drammen","phone":"47-32-26-60-00","address1":"Ole Steensgt. 10 Postboks 1530","latitude":"59.7451","name":"Aass Brewery","state":"","longitude":"10.2135"}},"282556":{"l":"Brewery","e":[{"t":241306,"d":true}],"f":{"country":"Belgium","website":"","code":"","city":"Dinant","phone":"","address1":"Dinant","latitude":"50.2606","name":"Abbaye de Leffe","state":"Namur","longitude":"4.9122"}},"282557":{"l":"Brewery","e":[{"t":241305,"d":true}],"f":{"country":"Belgium","website":"http://www.maredsous10.be/","code":"","phone":"32-(0)82-69-82-11","city":"Dene","address1":"Rue de Maredsous, 11","latitude":"50.3093","name":"Abbaye de Maredsous","state":"Namur","longitude":"4.7646"}},"282558":{"l":"Brewery","e":[{"t":244932,"d":true}],"f":{"country":"Belgium","website":"","code":"","phone":"32-084/22.01.47","city":"Rochefort","address1":"Rue de l'Abbaye 8","latitude":"50.1999","name":"Abbaye Notre Dame du St Remy","state":"Namur","longitude":"5.2277"}}}}